[
  {
    "city": "Tân Hiệp",
    "lat": "10.4490",
    "lng": "106.3439",
    "country": "Vietnam",
    "iso2": "VN",
    "admin_name": "Tiền Giang",
    "capital": "minor",
    "population": "",
    "population_proper": ""
  },
  {
    "city": "Mỹ Lộc",
    "lat": "20.4411",
    "lng": "106.1024",
    "country": "Vietnam",
    "iso2": "VN",
    "admin_name": "Nam Định",
    "capital": "minor",
    "population": "",
    "population_proper": ""
  },
  {
    "city": "Nga Sơn",
    "lat": "20.0072",
    "lng": "105.9704",
    "country": "Vietnam",
    "iso2": "VN",
    "admin_name": "Thanh Hóa",
    "capital": "minor",
    "population": "",
    "population_proper": ""
  },
  {
    "city": "Phát Diệm",
    "lat": "20.0905",
    "lng": "106.0832",
    "country": "Vietnam",
    "iso2": "VN",
    "admin_name": "Ninh Bình",
    "capital": "minor",
    "population": "",
    "population_proper": ""
  },
  {
    "city": "Cần Giuộc",
    "lat": "10.6086",
    "lng": "106.6713",
    "country": "Vietnam",
    "iso2": "VN",
    "admin_name": "Long An",
    "capital": "minor",
    "population": "",
    "population_proper": ""
  },
  {
    "city": "An Phú",
    "lat": "10.8159",
    "lng": "105.0904",
    "country": "Vietnam",
    "iso2": "VN",
    "admin_name": "An Giang",
    "capital": "minor",
    "population": "",
    "population_proper": ""
  },
  {
    "city": "Trảng Bom",
    "lat": "10.9536",
    "lng": "107.0059",
    "country": "Vietnam",
    "iso2": "VN",
    "admin_name": "Đồng Nai",
    "capital": "minor",
    "population": "",
    "population_proper": ""
  },
  {
    "city": "Phú Vang",
    "lat": "16.4391",
    "lng": "107.7144",
    "country": "Vietnam",
    "iso2": "VN",
    "admin_name": "Thừa Thiên-Huế",
    "capital": "minor",
    "population": "",
    "population_proper": ""
  },
  {
    "city": "Lấp Vò",
    "lat": "10.3616",
    "lng": "105.5192",
    "country": "Vietnam",
    "iso2": "VN",
    "admin_name": "Đồng Tháp",
    "capital": "minor",
    "population": "",
    "population_proper": ""
  },
  {
    "city": "Vôi",
    "lat": "21.3552",
    "lng": "106.2615",
    "country": "Vietnam",
    "iso2": "VN",
    "admin_name": "Bắc Giang",
    "capital": "minor",
    "population": "",
    "population_proper": ""
  },
  {
    "city": "Chợ Gạo",
    "lat": "10.3498",
    "lng": "106.4634",
    "country": "Vietnam",
    "iso2": "VN",
    "admin_name": "Tiền Giang",
    "capital": "minor",
    "population": "",
    "population_proper": ""
  },
  {
    "city": "Liễu Đề",
    "lat": "20.2209",
    "lng": "106.1875",
    "country": "Vietnam",
    "iso2": "VN",
    "admin_name": "Nam Định",
    "capital": "minor",
    "population": "",
    "population_proper": ""
  },
  {
    "city": "Tư Nghĩa",
    "lat": "15.0845",
    "lng": "108.8260",
    "country": "Vietnam",
    "iso2": "VN",
    "admin_name": "Quảng Ngãi",
    "capital": "minor",
    "population": "",
    "population_proper": ""
  },
  {
    "city": "Long Hồ",
    "lat": "10.1928",
    "lng": "106.0123",
    "country": "Vietnam",
    "iso2": "VN",
    "admin_name": "Vĩnh Long",
    "capital": "minor",
    "population": "",
    "population_proper": ""
  },
  {
    "city": "Long Khánh",
    "lat": "10.9265",
    "lng": "107.2478",
    "country": "Vietnam",
    "iso2": "VN",
    "admin_name": "Đồng Nai",
    "capital": "minor",
    "population": "",
    "population_proper": ""
  },
  {
    "city": "Cao Thượng",
    "lat": "21.3871",
    "lng": "106.1293",
    "country": "Vietnam",
    "iso2": "VN",
    "admin_name": "Bắc Giang",
    "capital": "minor",
    "population": "",
    "population_proper": ""
  },
  {
    "city": "Châu Thành",
    "lat": "10.3012",
    "lng": "106.3570",
    "country": "Vietnam",
    "iso2": "VN",
    "admin_name": "Bến Tre",
    "capital": "minor",
    "population": "",
    "population_proper": ""
  },
  {
    "city": "An Nhơn",
    "lat": "13.8858",
    "lng": "109.1082",
    "country": "Vietnam",
    "iso2": "VN",
    "admin_name": "Bình Định",
    "capital": "minor",
    "population": "",
    "population_proper": ""
  },
  {
    "city": "Phú Mỹ",
    "lat": "10.5924",
    "lng": "105.3557",
    "country": "Vietnam",
    "iso2": "VN",
    "admin_name": "An Giang",
    "capital": "minor",
    "population": "",
    "population_proper": ""
  },
  {
    "city": "Chợ Lách",
    "lat": "10.2603",
    "lng": "106.1189",
    "country": "Vietnam",
    "iso2": "VN",
    "admin_name": "Bến Tre",
    "capital": "minor",
    "population": "",
    "population_proper": ""
  },
  {
    "city": "Phúc Yên",
    "lat": "21.2370",
    "lng": "105.7048",
    "country": "Vietnam",
    "iso2": "VN",
    "admin_name": "Vĩnh Phúc",
    "capital": "minor",
    "population": "",
    "population_proper": ""
  },
  {
    "city": "Lai Vung",
    "lat": "10.2870",
    "lng": "105.6617",
    "country": "Vietnam",
    "iso2": "VN",
    "admin_name": "Đồng Tháp",
    "capital": "minor",
    "population": "",
    "population_proper": ""
  },
  {
    "city": "Phú Thọ",
    "lat": "21.3996",
    "lng": "105.2222",
    "country": "Vietnam",
    "iso2": "VN",
    "admin_name": "Phú Thọ",
    "capital": "minor",
    "population": "",
    "population_proper": ""
  },
  {
    "city": "Thọ Xuân",
    "lat": "19.9313",
    "lng": "105.5218",
    "country": "Vietnam",
    "iso2": "VN",
    "admin_name": "Thanh Hóa",
    "capital": "minor",
    "population": "",
    "population_proper": ""
  },
  {
    "city": "Bảo Lộc",
    "lat": "11.5480",
    "lng": "107.8077",
    "country": "Vietnam",
    "iso2": "VN",
    "admin_name": "Lâm Đồng",
    "capital": "minor",
    "population": "",
    "population_proper": ""
  },
  {
    "city": "Hương Canh",
    "lat": "21.2788",
    "lng": "105.6470",
    "country": "Vietnam",
    "iso2": "VN",
    "admin_name": "Vĩnh Phúc",
    "capital": "minor",
    "population": "",
    "population_proper": ""
  },
  {
    "city": "Mỏ Cày",
    "lat": "10.1331",
    "lng": "106.3352",
    "country": "Vietnam",
    "iso2": "VN",
    "admin_name": "Bến Tre",
    "capital": "minor",
    "population": "",
    "population_proper": ""
  },
  {
    "city": "Ngã Bảy",
    "lat": "9.8137",
    "lng": "105.8210",
    "country": "Vietnam",
    "iso2": "VN",
    "admin_name": "Hậu Giang",
    "capital": "minor",
    "population": "",
    "population_proper": ""
  },
  {
    "city": "Vĩnh Bình",
    "lat": "10.3450",
    "lng": "106.5806",
    "country": "Vietnam",
    "iso2": "VN",
    "admin_name": "Tiền Giang",
    "capital": "minor",
    "population": "",
    "population_proper": ""
  },
  {
    "city": "Tuy Phước",
    "lat": "13.8274",
    "lng": "109.1665",
    "country": "Vietnam",
    "iso2": "VN",
    "admin_name": "Bình Định",
    "capital": "minor",
    "population": "",
    "population_proper": ""
  },
  {
    "city": "Lập Thạch",
    "lat": "21.4154",
    "lng": "105.4608",
    "country": "Vietnam",
    "iso2": "VN",
    "admin_name": "Vĩnh Phúc",
    "capital": "minor",
    "population": "",
    "population_proper": ""
  },
  {
    "city": "Cái Tàu Hạ",
    "lat": "10.2597",
    "lng": "105.8704",
    "country": "Vietnam",
    "iso2": "VN",
    "admin_name": "Đồng Tháp",
    "capital": "minor",
    "population": "",
    "population_proper": ""
  },
  {
    "city": "Ho Chi Minh City",
    "lat": "10.8167",
    "lng": "106.6333",
    "country": "Vietnam",
    "iso2": "VN",
    "admin_name": "Hồ Chí Minh",
    "capital": "admin",
    "population": "13312000",
    "population_proper": "7431000"
  },
  {
    "city": "Hanoi",
    "lat": "21.0245",
    "lng": "105.8412",
    "country": "Vietnam",
    "iso2": "VN",
    "admin_name": "Hà Nội",
    "capital": "primary",
    "population": "7785000",
    "population_proper": "7785000"
  },
  {
    "city": "Haiphong",
    "lat": "20.8000",
    "lng": "106.6667",
    "country": "Vietnam",
    "iso2": "VN",
    "admin_name": "Hải Phòng",
    "capital": "admin",
    "population": "2103500",
    "population_proper": "2103500"
  },
  {
    "city": "Cần Thơ",
    "lat": "10.0333",
    "lng": "105.7833",
    "country": "Vietnam",
    "iso2": "VN",
    "admin_name": "Cần Thơ",
    "capital": "admin",
    "population": "1237300",
    "population_proper": "1237300"
  },
  {
    "city": "Biên Hòa",
    "lat": "10.9277",
    "lng": "106.8681",
    "country": "Vietnam",
    "iso2": "VN",
    "admin_name": "Đồng Nai",
    "capital": "admin",
    "population": "1104000",
    "population_proper": "1104000"
  },
  {
    "city": "Thủ Đức",
    "lat": "10.8199",
    "lng": "106.7909",
    "country": "Vietnam",
    "iso2": "VN",
    "admin_name": "Hồ Chí Minh",
    "capital": "minor",
    "population": "1013795",
    "population_proper": "1013795"
  },
  {
    "city": "Bắc Ninh",
    "lat": "21.1861",
    "lng": "106.0763",
    "country": "Vietnam",
    "iso2": "VN",
    "admin_name": "Bắc Ninh",
    "capital": "admin",
    "population": "520000",
    "population_proper": "520000"
  },
  {
    "city": "Hải Dương",
    "lat": "20.9399",
    "lng": "106.3309",
    "country": "Vietnam",
    "iso2": "VN",
    "admin_name": "Hải Dương",
    "capital": "admin",
    "population": "507469",
    "population_proper": "507469"
  },
  {
    "city": "Thanh Hóa",
    "lat": "19.8075",
    "lng": "105.7764",
    "country": "Vietnam",
    "iso2": "VN",
    "admin_name": "Thanh Hóa",
    "capital": "admin",
    "population": "393294",
    "population_proper": "393294"
  },
  {
    "city": "Nha Trang",
    "lat": "12.2495",
    "lng": "109.1908",
    "country": "Vietnam",
    "iso2": "VN",
    "admin_name": "Khánh Hòa",
    "capital": "admin",
    "population": "392279",
    "population_proper": "392279"
  },
  {
    "city": "Nam Định",
    "lat": "20.4200",
    "lng": "106.1683",
    "country": "Vietnam",
    "iso2": "VN",
    "admin_name": "Nam Định",
    "capital": "admin",
    "population": "352108",
    "population_proper": "352108"
  },
  {
    "city": "Buôn Ma Thuột",
    "lat": "12.6667",
    "lng": "108.0500",
    "country": "Vietnam",
    "iso2": "VN",
    "admin_name": "Đắk Lắk",
    "capital": "admin",
    "population": "340000",
    "population_proper": "340000"
  },
  {
    "city": "Thái Nguyên",
    "lat": "21.6000",
    "lng": "105.8500",
    "country": "Vietnam",
    "iso2": "VN",
    "admin_name": "Thái Nguyên",
    "capital": "admin",
    "population": "330000",
    "population_proper": "330000"
  },
  {
    "city": "Vũng Tàu",
    "lat": "10.4042",
    "lng": "107.1417",
    "country": "Vietnam",
    "iso2": "VN",
    "admin_name": "Bà Rịa-Vũng Tàu",
    "capital": "admin",
    "population": "327000",
    "population_proper": "327000"
  },
  {
    "city": "Cà Mau",
    "lat": "9.1833",
    "lng": "105.1500",
    "country": "Vietnam",
    "iso2": "VN",
    "admin_name": "Cà Mau",
    "capital": "admin",
    "population": "315270",
    "population_proper": "315270"
  },
  {
    "city": "Quy Nhơn",
    "lat": "13.7696",
    "lng": "109.2314",
    "country": "Vietnam",
    "iso2": "VN",
    "admin_name": "Bình Định",
    "capital": "admin",
    "population": "311000",
    "population_proper": "311000"
  },
  {
    "city": "Sóc Trăng",
    "lat": "9.6000",
    "lng": "105.9719",
    "country": "Vietnam",
    "iso2": "VN",
    "admin_name": "Sóc Trăng",
    "capital": "admin",
    "population": "300000",
    "population_proper": "173922"
  },
  {
    "city": "Long Xuyên",
    "lat": "10.3686",
    "lng": "105.4234",
    "country": "Vietnam",
    "iso2": "VN",
    "admin_name": "An Giang",
    "capital": "admin",
    "population": "278658",
    "population_proper": "278658"
  },
  {
    "city": "Việt Trì",
    "lat": "21.3136",
    "lng": "105.3947",
    "country": "Vietnam",
    "iso2": "VN",
    "admin_name": "Phú Thọ",
    "capital": "admin",
    "population": "277539",
    "population_proper": "277539"
  },
  {
    "city": "Thái Bình",
    "lat": "20.4461",
    "lng": "106.3422",
    "country": "Vietnam",
    "iso2": "VN",
    "admin_name": "Thái Bình",
    "capital": "admin",
    "population": "268167",
    "population_proper": "268167"
  },
  {
    "city": "Quảng Ngãi",
    "lat": "15.1206",
    "lng": "108.7922",
    "country": "Vietnam",
    "iso2": "VN",
    "admin_name": "Quảng Ngãi",
    "capital": "admin",
    "population": "260252",
    "population_proper": "260252"
  },
  {
    "city": "Rạch Giá",
    "lat": "10.0125",
    "lng": "105.0808",
    "country": "Vietnam",
    "iso2": "VN",
    "admin_name": "Kiến Giang",
    "capital": "admin",
    "population": "250660",
    "population_proper": "250660"
  },
  {
    "city": "Thủ Dầu Một",
    "lat": "11.0042",
    "lng": "106.6583",
    "country": "Vietnam",
    "iso2": "VN",
    "admin_name": "Bình Dương",
    "capital": "admin",
    "population": "244277",
    "population_proper": "244277"
  },
  {
    "city": "Tuy Hòa",
    "lat": "13.0869",
    "lng": "109.3086",
    "country": "Vietnam",
    "iso2": "VN",
    "admin_name": "Phú Yên",
    "capital": "admin",
    "population": "242840",
    "population_proper": "242840"
  },
  {
    "city": "Bạc Liêu",
    "lat": "9.2833",
    "lng": "105.7167",
    "country": "Vietnam",
    "iso2": "VN",
    "admin_name": "Bạc Liêu",
    "capital": "admin",
    "population": "225000",
    "population_proper": "150000"
  },
  {
    "city": "Sa Đéc",
    "lat": "10.3105",
    "lng": "105.7397",
    "country": "Vietnam",
    "iso2": "VN",
    "admin_name": "Đồng Tháp",
    "capital": "minor",
    "population": "213610",
    "population_proper": "213610"
  },
  {
    "city": "Phan Thiết",
    "lat": "10.9375",
    "lng": "108.1583",
    "country": "Vietnam",
    "iso2": "VN",
    "admin_name": "Bình Thuận",
    "capital": "admin",
    "population": "205333",
    "population_proper": "205333"
  },
  {
    "city": "Sơn Tây",
    "lat": "21.1382",
    "lng": "105.5050",
    "country": "Vietnam",
    "iso2": "VN",
    "admin_name": "Hà Nội",
    "capital": "minor",
    "population": "189547",
    "population_proper": "40636"
  },
  {
    "city": "Phan Rang-Tháp Chàm",
    "lat": "11.5643",
    "lng": "108.9886",
    "country": "Vietnam",
    "iso2": "VN",
    "admin_name": "Ninh Thuận",
    "capital": "admin",
    "population": "179773",
    "population_proper": "91520"
  },
  {
    "city": "Hạ Long",
    "lat": "20.9514",
    "lng": "107.0852",
    "country": "Vietnam",
    "iso2": "VN",
    "admin_name": "Quảng Ninh",
    "capital": "admin",
    "population": "172915",
    "population_proper": "148066"
  },
  {
    "city": "Hà Tĩnh",
    "lat": "18.3431",
    "lng": "105.9058",
    "country": "Vietnam",
    "iso2": "VN",
    "admin_name": "Hà Tĩnh",
    "capital": "admin",
    "population": "165396",
    "population_proper": "165396"
  },
  {
    "city": "Đồng Hới",
    "lat": "17.4833",
    "lng": "106.6000",
    "country": "Vietnam",
    "iso2": "VN",
    "admin_name": "Quảng Bình",
    "capital": "admin",
    "population": "160325",
    "population_proper": "160325"
  },
  {
    "city": "Cẩm Phả",
    "lat": "21.0094",
    "lng": "107.2728",
    "country": "Vietnam",
    "iso2": "VN",
    "admin_name": "Quảng Ninh",
    "capital": "minor",
    "population": "156000",
    "population_proper": "156000"
  },
  {
    "city": "Cao Lãnh",
    "lat": "10.4603",
    "lng": "105.6331",
    "country": "Vietnam",
    "iso2": "VN",
    "admin_name": "Đồng Tháp",
    "capital": "admin",
    "population": "149837",
    "population_proper": "149837"
  },
  {
    "city": "Lạng Sơn",
    "lat": "21.8478",
    "lng": "106.7578",
    "country": "Vietnam",
    "iso2": "VN",
    "admin_name": "Lạng Sơn",
    "capital": "admin",
    "population": "148000",
    "population_proper": "148000"
  },
  {
    "city": "Cam Ranh",
    "lat": "11.9020",
    "lng": "109.2207",
    "country": "Vietnam",
    "iso2": "VN",
    "admin_name": "Khánh Hòa",
    "capital": "",
    "population": "146771",
    "population_proper": "23883"
  },
  {
    "city": "Tân An",
    "lat": "10.5322",
    "lng": "106.4042",
    "country": "Vietnam",
    "iso2": "VN",
    "admin_name": "Long An",
    "capital": "admin",
    "population": "137498",
    "population_proper": "64801"
  },
  {
    "city": "Trà Vinh",
    "lat": "9.9369",
    "lng": "106.3411",
    "country": "Vietnam",
    "iso2": "VN",
    "admin_name": "Trà Vinh",
    "capital": "admin",
    "population": "131360",
    "population_proper": "131360"
  },
  {
    "city": "Ninh Bình",
    "lat": "20.2539",
    "lng": "105.9750",
    "country": "Vietnam",
    "iso2": "VN",
    "admin_name": "Ninh Bình",
    "capital": "admin",
    "population": "130517",
    "population_proper": "130517"
  },
  {
    "city": "Tây Ninh",
    "lat": "11.3131",
    "lng": "106.0963",
    "country": "Vietnam",
    "iso2": "VN",
    "admin_name": "Tây Ninh",
    "capital": "admin",
    "population": "126370",
    "population_proper": "126370"
  },
  {
    "city": "Cam Ranh",
    "lat": "11.9136",
    "lng": "109.1369",
    "country": "Vietnam",
    "iso2": "VN",
    "admin_name": "Khánh Hòa",
    "capital": "minor",
    "population": "125311",
    "population_proper": "125311"
  },
  {
    "city": "Mỹ Tho",
    "lat": "10.3500",
    "lng": "106.3500",
    "country": "Vietnam",
    "iso2": "VN",
    "admin_name": "Tiền Giang",
    "capital": "admin",
    "population": "124143",
    "population_proper": "122310"
  },
  {
    "city": "Hội An",
    "lat": "15.8777",
    "lng": "108.3327",
    "country": "Vietnam",
    "iso2": "VN",
    "admin_name": "Quảng Nam",
    "capital": "",
    "population": "121716",
    "population_proper": "121716"
  },
  {
    "city": "Hòa Bình",
    "lat": "20.8175",
    "lng": "105.3375",
    "country": "Vietnam",
    "iso2": "VN",
    "admin_name": "Hòa Bình",
    "capital": "admin",
    "population": "121309",
    "population_proper": "121309"
  },
  {
    "city": "Mang La",
    "lat": "14.3838",
    "lng": "107.9833",
    "country": "Vietnam",
    "iso2": "VN",
    "admin_name": "Kon Tum",
    "capital": "",
    "population": "105489",
    "population_proper": "47409"
  },
  {
    "city": "Vĩnh Long",
    "lat": "10.2550",
    "lng": "105.9753",
    "country": "Vietnam",
    "iso2": "VN",
    "admin_name": "Vĩnh Long",
    "capital": "admin",
    "population": "103314",
    "population_proper": "103314"
  },
  {
    "city": "Vị Thanh",
    "lat": "9.7833",
    "lng": "105.4708",
    "country": "Vietnam",
    "iso2": "VN",
    "admin_name": "Hậu Giang",
    "capital": "admin",
    "population": "97200",
    "population_proper": "97200"
  },
  {
    "city": "Yên Bái",
    "lat": "21.7000",
    "lng": "104.8667",
    "country": "Vietnam",
    "iso2": "VN",
    "admin_name": "Yên Bái",
    "capital": "admin",
    "population": "96540",
    "population_proper": "96540"
  },
  {
    "city": "Dĩ An",
    "lat": "10.9039",
    "lng": "106.7679",
    "country": "Vietnam",
    "iso2": "VN",
    "admin_name": "Bình Dương",
    "capital": "minor",
    "population": "73859",
    "population_proper": "73859"
  },
  {
    "city": "Quảng Trị",
    "lat": "16.7504",
    "lng": "107.2000",
    "country": "Vietnam",
    "iso2": "VN",
    "admin_name": "Quảng Trị",
    "capital": "",
    "population": "72722",
    "population_proper": "72722"
  },
  {
    "city": "Phú Quốc",
    "lat": "10.2289",
    "lng": "103.9572",
    "country": "Vietnam",
    "iso2": "VN",
    "admin_name": "Kiến Giang",
    "capital": "minor",
    "population": "70000",
    "population_proper": "70000"
  },
  {
    "city": "Lào Cai",
    "lat": "22.4194",
    "lng": "103.9950",
    "country": "Vietnam",
    "iso2": "VN",
    "admin_name": "Lào Cai",
    "capital": "admin",
    "population": "67206",
    "population_proper": "36502"
  },
  {
    "city": "Bến Tre",
    "lat": "10.2333",
    "lng": "106.3833",
    "country": "Vietnam",
    "iso2": "VN",
    "admin_name": "Bến Tre",
    "capital": "admin",
    "population": "59442",
    "population_proper": "59442"
  },
  {
    "city": "Bắc Giang",
    "lat": "21.2731",
    "lng": "106.1947",
    "country": "Vietnam",
    "iso2": "VN",
    "admin_name": "Bắc Giang",
    "capital": "admin",
    "population": "53728",
    "population_proper": "53728"
  },
  {
    "city": "Hà Tiên",
    "lat": "10.3833",
    "lng": "104.4833",
    "country": "Vietnam",
    "iso2": "VN",
    "admin_name": "Kiến Giang",
    "capital": "minor",
    "population": "47039",
    "population_proper": "47039"
  }
]
